City_ID,City,Lat,Lng,Max Temp,Humidity,Cloudiness,Wind Speed,Country,Date
0,saint-joseph,-21.3667,55.6167,21.37,79,5,2.6,RE,1690258971
1,edinburgh of the seven seas,-37.0676,-12.3116,14.88,81,77,17.02,SH,1690258937
2,mugia,43.1041,-9.2179,13.84,75,46,4.33,ES,1690259481
3,iqaluit,63.7506,-68.5145,5.85,93,75,3.09,CA,1690258935
4,olonkinbyen,70.9221,-8.7187,5.16,90,100,4.84,SJ,1690258921
5,adamstown,-25.066,-130.1015,20.51,72,15,3.92,PN,1690258911
6,kaspiyskiy,45.3929,47.3707,25.75,59,100,2.42,RU,1690259482
7,grytviken,-54.2811,-36.5092,-5.57,78,20,5.21,GS,1690258910
8,bethel,41.3712,-73.414,23.75,82,20,1.54,US,1690258889
9,coahuayana de hidalgo,18.7,-103.6583,25.35,93,100,1.38,MX,1690259458
10,blackmans bay,-43.0167,147.3167,13.74,62,100,1.13,AU,1690258919
11,kem',64.9555,34.5793,11.31,94,100,2.59,RU,1690259483
12,badger,64.8,-147.5333,29.95,47,75,3.6,US,1690259032
13,hermanus,-34.4187,19.2345,9.48,66,0,2.52,ZA,1690258692
14,sambava,-14.2667,50.1667,22.01,77,60,3.13,MG,1690259484
15,hawaiian paradise park,19.5933,-154.9731,25.73,88,100,3.6,US,1690258926
16,ribeira grande,38.5167,-28.7,21.54,86,15,3.13,PT,1690258910
17,mount pearl,47.5166,-52.7813,20.25,90,40,6.69,CA,1690258937
18,midvagur,62.0511,-7.1939,7.46,87,100,4.63,FO,1690259485
19,lihue,21.9789,-159.3672,28.58,83,75,6.17,US,1690258951
20,aasiaat,68.7098,-52.8699,2.76,95,100,3.17,GL,1690258950
21,anadyr,64.75,177.4833,12.28,81,75,8.0,RU,1690258918
22,gadzhiyevo,69.2551,33.3362,9.52,95,100,3.5,RU,1690258981
23,nar'yan-mar,67.6713,53.087,18.42,72,54,4.64,RU,1690258919
24,kingston,17.997,-76.7936,28.53,77,20,1.03,JM,1690259197
25,dudinka,69.4058,86.1778,18.68,46,41,6.67,RU,1690258975
26,berezovyy,51.6667,135.7,17.57,98,100,1.06,RU,1690259487
27,tazovsky,67.4667,78.7,18.12,72,24,3.54,RU,1690258940
28,puerto natales,-51.7236,-72.4875,-4.59,91,100,0.54,CL,1690258745
29,utrik,11.2278,169.8474,28.73,74,100,7.36,MH,1690258917
30,thompson,55.7435,-97.8558,17.09,82,100,4.12,CA,1690258905
31,kiruna,67.8557,20.2251,8.51,100,100,2.57,SE,1690259488
32,new norfolk,-42.7826,147.0587,14.4,52,100,2.25,AU,1690258971
33,trincomalee,8.5711,81.2335,30.94,59,99,8.11,LK,1690259489
34,labytnangi,66.6572,66.4183,22.5,60,96,4.79,RU,1690259489
35,lompoc,34.6391,-120.4579,23.21,90,0,2.06,US,1690258945
36,brookings,44.3114,-96.7984,23.0,81,0,3.6,US,1690258915
37,gillette,44.2911,-105.5022,23.95,52,75,8.75,US,1690259329
38,cuyo,10.8525,121.0086,27.01,86,100,13.61,PH,1690259490
39,port-aux-francais,-49.35,70.2167,3.32,65,100,8.69,TF,1690258904
40,hobyo,5.3505,48.5268,25.97,73,51,11.67,SO,1690259490
41,waitangi,-43.9535,-176.5597,11.57,98,100,0.89,NZ,1690258915
42,kralendijk,12.15,-68.2667,27.99,83,35,5.66,BQ,1690259490
43,mana,5.6592,-53.7767,25.09,89,57,3.42,GF,1690259491
44,codrington,-38.2667,141.9667,14.3,64,21,2.0,AU,1690259431
45,giado,31.9582,12.0203,29.14,18,0,6.21,LY,1690259491
46,linxia chengguanzhen,35.6003,103.2064,26.68,40,14,1.16,CN,1690259199
47,vilyuchinsk,52.9306,158.4028,27.15,63,1,3.51,RU,1690259479
48,herceg novi,42.4531,18.5375,30.49,88,0,0.51,ME,1690259289
49,longyearbyen,78.2186,15.6401,9.91,76,75,2.57,SJ,1690258854
50,nogales,31.3086,-110.9422,25.69,64,75,3.09,MX,1690259492
51,changling,44.2653,124.0005,28.08,61,70,4.06,CN,1690259492
52,al burayqah,30.4062,19.5739,27.39,76,0,3.15,LY,1690258986
53,kihurio,-4.4667,38.0667,20.21,79,56,2.46,TZ,1690259493
54,isafjordur,66.0755,-23.124,8.7,95,100,3.15,IS,1690258909
55,maryborough,-25.5333,152.7,20.58,55,27,5.86,AU,1690259493
56,constantia,44.1833,28.65,22.61,74,10,5.92,RO,1690258979
57,ushuaia,-54.8,-68.3,-1.19,69,0,2.06,AR,1690258948
58,udachny,66.4167,112.4,16.36,82,85,2.37,RU,1690258939
59,whitehorse,60.7161,-135.0538,19.45,59,75,3.09,CA,1690258915
60,hadibu,12.65,54.0333,25.41,77,97,11.34,YE,1690258939
61,okahandja,-21.9833,16.9167,12.72,36,31,3.79,NA,1690259494
62,gebeit,21.0667,36.3167,33.5,12,31,1.65,SD,1690259495
63,jamestown,42.097,-79.2353,19.77,80,0,0.45,US,1690258918
64,tarawa,1.419,172.984,31.05,70,40,1.03,KI,1690259495
65,wailua homesteads,22.0669,-159.378,28.24,87,75,6.17,US,1690258950
66,severo-yeniseyskiy,60.3725,93.0408,26.19,43,10,1.97,RU,1690259473
67,minas de marcona,-15.2119,-75.1103,12.2,87,59,6.61,PE,1690258995
68,kogalym,62.2654,74.4791,17.04,90,100,4.33,RU,1690259496
69,tiksi,71.6872,128.8694,5.67,75,96,2.97,RU,1690258956
70,tromso,69.6496,18.957,13.54,82,0,1.03,NO,1690259496
71,atafu village,-8.5421,-172.5159,28.99,72,43,8.62,TK,1690258947
72,almeirim,-1.5233,-52.5817,23.72,66,32,1.22,BR,1690259497
73,ballina,-28.8667,153.5667,19.88,56,1,5.14,AU,1690259497
74,bandarbeyla,9.4942,50.8122,27.32,56,62,13.69,SO,1690259448
75,crane,31.3974,-102.3501,30.2,28,0,5.29,US,1690259476
76,hamilton,39.1834,-84.5333,21.81,92,0,2.06,US,1690259231
77,ust-nera,64.5667,143.2,21.64,62,90,1.23,RU,1690258919
78,punta arenas,-53.15,-70.9167,-1.65,87,100,1.5,CL,1690258947
79,college,64.8569,-147.8028,29.99,40,75,3.6,US,1690258907
80,okhotsk,59.3833,143.3,19.25,66,25,2.87,RU,1690259461
81,meizhou,24.2977,116.1072,36.68,49,24,0.71,CN,1690259499
82,banda aceh,5.5577,95.3222,31.16,59,99,6.62,ID,1690258998
83,energetik,51.7445,58.7934,23.13,46,100,2.77,RU,1690259499
84,walvis bay,-22.9575,14.5053,11.72,100,100,4.63,NA,1690258980
85,west island,-12.1568,96.8225,26.99,65,75,8.23,CC,1690258700
86,santa elena de uairen,4.6167,-61.1333,20.16,90,89,0.96,VE,1690258916
87,ilulissat,69.2167,-51.1,5.01,93,36,1.54,GL,1690258944
88,merizo village,13.2658,144.6691,29.43,88,100,5.9,GU,1690259500
89,ongjin,37.9347,125.3619,27.2,82,48,5.23,KP,1690259500
90,alto barinas,8.5931,-70.2261,22.26,94,18,1.16,VE,1690259501
91,gamba,-2.65,10.0,20.79,94,20,0.72,GA,1690258905
92,bayanhongor,46.7167,100.1167,19.58,37,76,2.64,MN,1690259036
93,la passe,45.5549,-0.8967,16.66,70,100,8.1,FR,1690258906
94,hithadhoo,-0.6,73.0833,28.2,78,100,7.41,MV,1690258960
95,petropavl,54.8753,69.1628,22.99,53,0,4.0,KZ,1690259503
96,hasaki,35.7333,140.8333,35.73,74,100,5.34,JP,1690258966
97,kolonia town,6.964,158.206,31.06,74,100,4.12,FM,1690259503
98,bilibino,68.0546,166.4372,12.34,84,100,0.54,RU,1690258960
99,tsetserleg,47.475,101.4542,18.97,66,71,2.67,MN,1690259503
100,kibre mengist,5.8833,38.9833,15.84,92,100,0.89,ET,1690259504
101,nemuro,43.3236,145.575,20.2,89,20,3.74,JP,1690259051
102,fortuna,40.5982,-124.1573,16.63,90,0,4.12,US,1690258992
103,bredasdorp,-34.5322,20.0403,5.92,74,0,1.99,ZA,1690258932
104,moissala,8.3404,17.7663,21.96,97,92,1.57,TD,1690259504
105,thai binh,20.45,106.3333,33.05,59,85,4.23,VN,1690259505
106,tazacorte,28.629,-17.9293,22.54,82,100,5.14,ES,1690259465
107,yellowknife,62.456,-114.3525,23.29,43,75,5.14,CA,1690258742
108,rio preto da eva,-2.6994,-59.6997,23.88,62,35,0.26,BR,1690259505
109,menongue,-14.6585,17.691,10.64,45,3,1.87,AO,1690258911
110,bairnsdale,-37.8333,147.6167,15.59,63,31,0.89,AU,1690258920
111,port lincoln,-34.7333,135.8667,14.87,68,0,4.12,AU,1690258978
112,port blair,11.6667,92.75,30.02,74,40,4.12,IN,1690259441
113,pariaman,-0.619,100.12,31.03,65,53,2.07,ID,1690259506
114,nova vicosa,-17.8919,-39.3719,20.75,90,18,1.35,BR,1690259506
115,haiku-pauwela,20.9219,-156.3051,26.01,74,20,11.32,US,1690259450
116,revelstoke,50.9832,-118.2023,24.01,41,100,5.66,CA,1690259417
117,kailua-kona,19.6406,-155.9956,28.66,81,75,2.06,US,1690259460
118,ancud,-41.8697,-73.8203,9.06,84,53,9.34,CL,1690259038
119,puerto ayora,-0.7393,-90.3518,24.75,93,55,4.02,EC,1690258914
120,invercargill,-46.4,168.35,8.03,78,68,8.04,NZ,1690258909
121,korla,41.7597,86.1469,34.52,16,43,3.92,CN,1690259507
122,kattivakkam,13.2167,80.3167,27.26,86,100,5.46,IN,1690259508
123,east london,-33.0153,27.9116,6.52,87,0,3.6,ZA,1690258957
124,fort mcmurray,56.7268,-111.381,24.77,53,0,3.6,CA,1690259436
125,hilo,19.7297,-155.09,30.71,78,100,3.6,US,1690259046
126,coquimbo,-29.9533,-71.3436,12.85,87,0,1.03,CL,1690258969
127,peace river,56.2501,-117.286,16.17,94,100,2.06,CA,1690259474
128,sechura,-5.5569,-80.8222,22.03,77,100,6.03,PE,1690259020
129,vorkuta,67.5,64.0,19.99,65,87,1.78,RU,1690259434
130,leninskoye,41.7589,69.3864,36.88,15,0,2.75,KZ,1690259459
131,sisimiut,66.9395,-53.6735,5.03,90,56,6.24,GL,1690259011
132,san patricio,28.017,-97.5169,29.92,72,54,4.47,US,1690258963
133,bikenibeu village,1.3673,173.1241,30.98,70,40,1.03,KI,1690258997
134,bonthe,7.5264,-12.505,24.71,89,100,2.24,SL,1690259473
135,fisterra,42.9049,-9.2629,13.75,74,14,5.0,ES,1690258943
136,galliano,29.4422,-90.2992,26.11,88,0,0.0,US,1690258978
137,bardsir,29.9227,56.5743,28.38,12,3,2.7,IR,1690259510
138,alaghsas,17.0187,8.0168,27.96,56,68,2.96,NE,1690259488
139,hood river,45.7054,-121.5215,22.33,64,0,3.58,US,1690259405
140,hooper,41.1638,-112.1224,27.08,44,0,4.63,US,1690259416
141,qaqortoq,60.7167,-46.0333,5.31,92,94,2.26,GL,1690258920
142,keflavik,64.0049,-22.5624,9.95,93,100,0.51,IS,1690258945
143,howard springs,-12.497,131.047,24.34,17,95,4.98,AU,1690258917
144,sorong,-0.8833,131.25,28.68,71,47,8.26,ID,1690259512
145,madanapalle,13.55,78.5,22.32,80,100,9.41,IN,1690259406
146,albany,42.6001,-73.9662,20.03,90,19,1.2,US,1690258758
147,afaahiti,-17.75,-149.2833,25.93,82,5,7.77,PF,1690258973
148,olyokminsk,60.3736,120.4264,33.59,26,3,0.53,RU,1690258952
149,kavaratti,10.5669,72.642,28.28,76,99,7.44,IN,1690259044
150,portstewart,55.1813,-6.714,10.99,87,81,4.04,GB,1690259513
151,ploneour-lanvern,47.9,-4.2833,14.18,88,100,3.09,FR,1690259513
152,pacific grove,36.6177,-121.9166,18.9,80,0,3.09,US,1690258912
153,la serena,-29.9078,-71.2542,12.73,87,0,1.03,CL,1690259513
154,santa ines,-3.6667,-45.38,22.2,75,3,0.45,BR,1690259514
155,troitskiy,57.0603,63.7481,22.42,55,66,2.83,RU,1690259514
156,port elizabeth,-33.918,25.5701,4.16,87,0,1.03,ZA,1690258956
157,lishu,43.3047,124.3278,26.79,77,98,5.58,CN,1690259515
158,northam,51.0333,-4.2167,13.12,89,98,3.22,GB,1690258962
159,hotan,37.0997,79.9269,31.67,23,94,6.06,CN,1690258969
160,ma'rib,15.4591,45.3253,33.35,27,100,5.04,YE,1690259515
161,tofol,5.3248,163.0078,28.59,77,85,5.77,FM,1690259515
162,papatowai,-46.5619,169.4708,7.72,80,82,7.51,NZ,1690258915
163,kodiak,57.79,-152.4072,13.73,72,0,5.66,US,1690258941
164,namdrik,5.5994,168.1028,28.4,78,48,4.97,MH,1690259516
165,ola,59.5833,151.2833,25.08,60,3,3.14,RU,1690258988
166,mejit,10.2753,170.8646,28.39,79,100,8.26,MH,1690259470
167,olinda,-8.0089,-34.8553,22.85,94,75,4.63,BR,1690259516
168,egilsstadir,65.2653,-14.3948,4.95,93,100,2.06,IS,1690259517
169,okha,53.5739,142.9478,18.36,70,57,5.37,RU,1690259517
170,barcelos,41.5388,-8.6151,14.95,94,5,2.17,PT,1690259518
171,enewetak,11.3474,162.3373,28.91,78,45,6.85,MH,1690259035
172,hargeysa,9.56,44.065,22.56,56,100,14.51,SO,1690259518
173,hammerfest,70.6634,23.6821,12.25,87,75,4.12,NO,1690258925
174,stanley,54.868,-1.6985,9.88,91,0,2.06,GB,1690258952
175,labrador city,52.9463,-66.9114,16.95,67,100,2.06,CA,1690259003
176,guerrero negro,27.9769,-114.0611,20.95,76,77,6.23,MX,1690258991
177,tuy hoa,13.0833,109.3,33.67,51,74,3.53,VN,1690259519
178,avarua,-21.2078,-159.775,23.03,73,75,2.57,CK,1690259519
179,prince rupert,54.3161,-130.3201,14.05,94,20,1.03,CA,1690259002
180,la'ie,21.6477,-157.9253,28.98,76,20,6.93,US,1690259520
181,margaret river,-33.95,115.0667,14.98,90,100,7.23,AU,1690258937
182,orapa,-21.2833,25.3667,12.63,37,18,3.8,BW,1690259520
183,camapua,-19.5314,-54.0439,19.38,45,4,2.14,BR,1690259520
184,port saint john's,-31.6229,29.5448,12.07,72,0,2.67,ZA,1690258968
185,hailar,49.2,119.7,25.6,54,79,2.56,CN,1690259521
186,anar darah,32.7587,61.654,33.86,13,12,1.71,AF,1690259521
187,malmberget,67.1753,20.6549,9.31,93,75,2.06,SE,1690259454
188,lorengau,-2.0226,147.2712,25.04,92,100,5.38,PG,1690259001
189,bakanas,44.8081,76.2772,35.98,11,0,4.07,KZ,1690259522
190,geraldton,-28.7667,114.6,17.23,45,100,5.66,AU,1690259478
191,chonchi,-42.6128,-73.8092,7.84,91,66,2.96,CL,1690258959
192,tumayr,25.7039,45.868,35.76,8,100,2.0,SA,1690259522
193,minbu,20.1833,94.8833,34.84,48,79,3.66,MM,1690259523
194,nchelenge,-9.3451,28.734,16.22,58,14,2.96,ZM,1690259523
195,pandan,14.0453,124.1694,28.33,83,100,10.74,PH,1690259523
196,iskateley,67.6803,53.1512,18.33,72,61,4.57,RU,1690258953
197,port douglas,-16.4833,145.4667,19.93,71,93,3.96,AU,1690259524
198,piacabucu,-10.4056,-36.4344,22.31,81,2,1.29,BR,1690259524
199,ouro preto do oeste,-10.7481,-62.2158,22.11,47,4,0.64,BR,1690259524
200,mugumu,-1.85,34.7,19.18,60,52,1.34,TZ,1690259524
201,arteche,12.2645,125.4048,29.96,70,100,7.64,PH,1690258936
202,pisco,-13.7,-76.2167,17.23,88,1,2.57,PE,1690259009
203,puerto deseado,-47.7503,-65.8938,5.25,84,100,9.74,AR,1690258892
204,quellon,-43.1167,-73.6167,9.14,93,100,6.17,CL,1690259025
205,santana,-0.0583,-51.1817,26.1,94,0,1.54,BR,1690258843
206,remire-montjoly,4.9167,-52.2667,24.02,100,75,0.0,GF,1690259524
207,broken hill,-31.95,141.4333,15.06,43,0,3.48,AU,1690259477
208,fort st. john,56.2499,-120.8529,15.94,72,100,2.06,CA,1690259457
209,fish town,5.1964,-7.8756,22.23,98,100,0.96,LR,1690259527
210,quarai,-30.3875,-56.4514,11.64,95,99,5.68,BR,1690259030
211,kembe,4.6228,21.8865,21.6,96,99,0.88,CF,1690259528
212,doka,13.5167,35.7667,23.9,80,100,4.82,SD,1690258994
213,kiunga,-6.1219,141.2906,27.46,65,93,2.11,PG,1690259453
214,igarka,67.4667,86.5833,22.02,56,4,2.75,RU,1690258988
215,zaragoza,41.6561,-0.8773,18.25,59,0,8.23,ES,1690259528
216,aripuana,-9.1667,-60.6333,22.16,53,6,0.81,BR,1690259002
217,guines,50.8671,1.8703,14.4,82,100,3.5,FR,1690259529
218,port mathurin,-19.6833,63.4167,23.69,75,79,9.47,MU,1690259529
219,namibe,-15.1961,12.1522,15.9,88,58,2.67,AO,1690258954
220,ketchikan,55.3422,-131.6461,17.26,72,75,6.17,US,1690258975
221,san juan de miraflores,-12.1629,-76.9635,19.29,82,72,3.59,PE,1690259530
222,bayanaul,50.7889,75.6956,24.43,34,100,2.32,KZ,1690259530
223,sitka,57.0531,-135.33,16.94,72,0,7.72,US,1690259013
224,nago,26.5881,127.9761,32.47,75,50,6.79,JP,1690259473
225,masumbwe,-3.6333,32.1833,19.81,48,27,1.84,TZ,1690259530
226,bodo,67.28,14.405,15.43,93,100,3.09,NO,1690259531
227,luderitz,-26.6481,15.1594,11.46,80,60,1.59,NA,1690258988
228,flying fish cove,-10.4217,105.6791,25.82,83,75,4.63,CX,1690259020
229,san borja,-14.8167,-66.85,21.46,73,1,1.05,BO,1690259531
230,cabo san lucas,22.8909,-109.9124,30.9,75,19,2.68,MX,1690258977
231,kununurra,-15.7667,128.7333,21.99,23,9,5.66,AU,1690259268
232,pasuquin,18.3328,120.6177,24.97,100,100,5.14,PH,1690259532
233,pyhajarvi,67.0701,27.2176,12.26,88,95,2.63,FI,1690259532
234,lebu,-37.6167,-73.65,12.34,90,100,6.12,CL,1690258947
235,san antonio de pale,-1.4014,5.6325,22.56,82,18,2.02,GQ,1690259498
236,divnomorskoye,44.5011,38.1353,24.0,65,0,0.57,RU,1690259533
237,naushahra virkan,31.9628,73.9723,30.73,69,72,4.34,PK,1690259533
238,saudarkrokur,65.7461,-19.6394,9.35,94,100,1.91,IS,1690259424
239,broome,42.2506,-75.833,18.59,89,75,3.09,US,1690259050
240,uturoa,-16.7333,-151.4333,26.74,84,11,6.09,PF,1690258984
241,west end,26.6833,-78.9667,27.99,73,1,2.54,BS,1690259534
242,monrovia,6.3005,-10.7969,24.9,86,100,3.53,LR,1690259534
243,tual,-5.6667,132.75,24.7,77,87,10.31,ID,1690259534
244,lata,40.1629,-8.3327,14.49,98,39,0.66,PT,1690259474
245,sinabang,2.4803,96.3801,29.43,68,49,0.75,ID,1690258945
246,kirensk,57.7853,108.1119,28.52,46,97,1.05,RU,1690259027
247,shalya,57.2471,58.7298,14.55,89,85,3.05,RU,1690259535
248,taro,-8.3862,115.28,24.0,56,9,1.67,ID,1690259029
249,fortaleza,-3.7227,-38.5247,27.07,78,75,4.63,BR,1690259400
250,papao,-17.75,-149.55,26.82,87,5,8.76,PF,1690259536
251,argo,37.6333,22.7333,25.99,42,0,1.34,GR,1690258985
252,rocky mountain house,52.3668,-114.9188,19.06,88,69,2.06,CA,1690259402
253,san jorge,-31.8962,-61.8598,6.58,96,1,2.95,AR,1690259536
254,olanchito,15.5,-86.5667,24.91,95,17,0.27,HN,1690259537
255,muri,23.3667,85.8667,31.15,61,84,4.36,IN,1690258991
256,cannonvale,-20.2833,148.7,20.66,78,16,7.7,AU,1690259537
257,trujillo,-8.116,-79.03,21.98,83,100,4.12,PE,1690259537
258,kristiansund,63.1115,7.732,13.36,82,75,5.66,NO,1690259537
259,wuwei,37.9281,102.6414,35.29,14,2,5.85,CN,1690259538
260,dean funes,-30.4204,-64.3498,5.79,88,9,3.88,AR,1690259538
261,sunne,59.8376,13.143,15.23,98,100,3.15,SE,1690259538
262,castillos,-34.1667,-53.8333,9.95,92,100,4.78,UY,1690258995
263,strathalbyn,-35.2667,138.9,17.07,77,0,1.26,AU,1690259538
264,celestun,20.8667,-90.4,27.97,75,100,5.9,MX,1690259539
265,serhiyivka,46.0272,30.3768,24.72,70,57,7.19,UA,1690259539
266,terme,41.2092,36.9739,20.96,75,82,2.31,TR,1690259539
267,chui,-33.6971,-53.4616,10.81,93,100,6.05,UY,1690259020
268,kavieng,-2.5744,150.7967,26.94,82,82,1.15,PG,1690259450
269,selfoss,63.9331,-20.9971,11.14,91,100,0.65,IS,1690258964
270,vila franca do campo,37.7167,-25.4333,21.23,88,36,1.95,PT,1690259014
271,nagqu,31.5,92.0,9.68,70,100,1.83,CN,1690259540
272,oyama,36.3,139.8,38.1,25,48,2.37,JP,1690259541
273,cochrane,51.1834,-114.4687,26.58,36,65,4.82,CA,1690259541
274,talnakh,69.4865,88.3972,18.45,51,45,2.11,RU,1690258977
275,bereznik,62.8551,42.7072,14.31,89,72,1.6,RU,1690259027
276,khovd,48.0056,91.6419,22.29,31,13,2.94,MN,1690259541
277,kirakira,-10.4544,161.9205,27.81,82,45,1.71,SB,1690259542
278,zalari,53.5584,102.5065,23.79,57,83,0.53,RU,1690259542
279,noosa heads,-26.3833,153.15,18.95,63,71,8.54,AU,1690259542
280,dzuunharaa,48.8523,106.4579,23.67,54,91,1.56,MN,1690259018
281,vadso,70.0744,29.7487,9.49,93,75,7.2,NO,1690258949
282,zarnesti,45.3,26.8667,24.58,47,27,2.55,RO,1690259543
283,laguna,38.421,-121.4238,28.51,44,0,2.57,US,1690259480
284,belmonte,-15.8631,-38.8828,20.51,91,26,3.79,BR,1690259543
285,lagos,6.5833,3.75,25.18,94,100,2.04,NG,1690259340
286,mirebalais,18.8333,-72.1053,29.4,85,97,1.26,HT,1690259544
287,garachico,28.7781,-17.7646,21.06,60,100,5.14,ES,1690259544
288,kayangel,8.0823,134.7173,27.8,79,99,3.89,PW,1690259544
289,karlivka,49.4567,35.1295,21.69,46,42,4.52,UA,1690259545
290,sheikhpura,25.15,85.85,36.71,42,82,3.57,IN,1690259545
291,nova sintra,14.8667,-24.7167,22.4,84,100,6.78,CV,1690258955
292,usinsk,65.9939,57.5281,20.9,58,7,2.25,RU,1690259510
293,petropavlovsk-kamchatsky,53.0452,158.6483,26.33,41,40,2.0,RU,1690259533
294,patur,20.45,76.9333,25.72,86,100,6.15,IN,1690259546
295,bhag,29.0415,67.8239,34.87,49,91,1.31,PK,1690259546
296,kabala,9.5833,-11.55,20.87,99,100,0.75,SL,1690259546
297,wucheng,29.6008,118.175,32.25,69,99,0.93,CN,1690259546
298,kragero,58.8693,9.4149,14.14,84,99,2.6,NO,1690259547
299,axim,4.8699,-2.2405,24.48,91,100,2.46,GH,1690259001
300,cadale,2.7603,46.3222,25.69,77,34,9.33,SO,1690259547
301,georgetown,5.4112,100.3354,31.97,69,20,3.09,MY,1690259548
302,rio grande,-32.035,-52.0986,12.75,94,100,9.24,BR,1690259548
303,mili,6.0815,171.735,27.99,80,82,4.08,MH,1690259548
304,grajau,-5.8194,-46.1386,21.95,57,3,1.1,BR,1690259548
305,klyuchi,52.2667,79.1667,26.5,33,87,5.86,RU,1690259463
306,palmer,42.1584,-72.3287,20.79,79,0,2.57,US,1690259548
307,cole harbour,44.6724,-63.4751,22.66,85,100,1.54,CA,1690258986
308,vilyuysk,63.7553,121.6247,22.97,45,68,3.31,RU,1690259004
309,tebessa,35.4042,8.1242,31.6,16,0,1.54,DZ,1690259351
310,murun-kuren,49.6342,100.1625,17.91,56,97,3.1,MN,1690259550
311,dolores hidalgo cuna de la independencia nacional,21.1561,-100.9308,13.86,91,53,3.62,MX,1690259551
312,tolanaro,-25.0319,46.9987,18.04,88,20,4.12,MG,1690259023
313,tocopilla,-22.092,-70.1979,16.34,83,49,2.89,CL,1690259551
314,ta`u,-14.2336,-169.5144,25.73,72,21,6.44,AS,1690259054
315,sinop,41.7711,34.8709,19.62,56,0,0.87,TR,1690259465
316,waddan,29.1614,16.139,29.85,26,0,1.18,LY,1690259552
317,richards bay,-28.783,32.0377,13.78,77,44,1.26,ZA,1690259362
318,gurmatkal,16.8667,77.4,22.45,92,100,6.89,IN,1690259552
319,toliara,-23.35,43.6667,18.23,78,1,2.74,MG,1690259552
320,alibag,18.6411,72.8792,28.04,88,100,6.71,IN,1690259553
321,fale old settlement,-9.3852,-171.2468,28.83,73,5,8.65,TK,1690258958
322,harwich,51.9419,1.2844,12.22,86,84,0.45,GB,1690259553
323,south hedland,-20.4089,118.5983,22.96,23,0,10.29,AU,1690259553
324,bridgewater,44.3835,-64.5155,21.82,81,100,2.06,CA,1690259497
325,lashio,22.9333,97.75,26.8,82,69,0.69,MM,1690259554
326,antsiranana,-12.2787,49.2917,19.42,82,20,3.09,MG,1690259554
327,recreo,-29.2818,-65.061,10.76,64,62,4.24,AR,1690259554
328,fedorovskiy,45.0972,40.9517,22.14,67,0,2.76,RU,1690259554
329,asau,46.4333,26.4,18.51,61,35,2.2,RO,1690259555
330,bangor,54.6534,-5.669,11.73,86,48,1.54,GB,1690259555
331,hailin,44.5833,129.4167,28.38,56,30,2.08,CN,1690258985
332,loralai,30.3705,68.598,25.83,58,90,1.71,PK,1690259555
333,canutama,-6.5339,-64.3831,22.84,55,35,0.11,BR,1690259555
334,tura,25.5198,90.2201,28.61,81,87,1.42,IN,1690258976
335,arkhangel'sk,64.5401,40.5433,13.95,83,71,2.04,RU,1690258782
336,ambon,-3.6954,128.1814,27.15,68,40,4.12,ID,1690259017
337,puerto cabezas,14.0351,-83.3888,26.21,87,97,4.18,NI,1690259556
338,leua,48.2156,18.6071,22.5,67,89,3.05,SK,1690259556
339,saint-philippe,-21.3585,55.7679,21.17,83,12,2.98,RE,1690259028
340,kolonia,50.9333,6.95,15.54,88,40,0.51,DE,1690259557
341,mount isa,-20.7333,139.5,21.87,37,52,7.72,AU,1690259020
342,revda,56.801,59.9303,18.77,71,52,3.72,RU,1690259511
343,san salvador,13.6894,-89.1872,23.13,100,100,1.62,SV,1690259557
344,ilhabela,-23.7781,-45.3581,20.21,79,37,1.76,BR,1690259558
345,neiafu,-18.65,-173.9833,22.7,65,1,4.78,TO,1690259446
346,selkirk,50.1436,-96.8845,22.04,83,67,3.61,CA,1690259483
347,ialibu,-6.2821,143.9935,16.01,90,100,1.71,PG,1690259558
348,kuqa,41.7278,82.9364,34.12,18,93,2.19,CN,1690259558
349,nuku'alofa,-21.1333,-175.2,21.8,61,36,4.52,TO,1690259458
350,daru,-9.0763,143.2092,25.77,67,98,4.31,PG,1690259484
351,luau,-10.7073,22.2247,14.89,52,2,1.93,AO,1690259559
352,el granada,37.5027,-122.4694,20.59,82,100,7.72,US,1690259000
353,syktyvkar,61.6764,50.8099,14.95,93,100,2.0,RU,1690259559
354,teluk nibung,3.001,99.8164,30.69,59,100,1.33,ID,1690259559
355,harper,4.375,-7.7169,24.59,86,100,4.05,LR,1690259560
356,st. john's,47.5649,-52.7093,20.71,90,40,6.69,CA,1690259380
357,weno,7.4515,151.8468,30.97,79,100,2.06,FM,1690259468
358,happy valley-goose bay,53.3168,-60.3315,16.17,77,100,2.57,CA,1690259043
359,kayyerkan,69.3786,87.7439,18.5,72,48,3.7,RU,1690259560
360,wenatchee,47.4235,-120.3103,22.44,53,22,3.04,US,1690259181
361,westport,41.1415,-73.3579,25.41,91,0,2.68,US,1690259504
362,roosevelt,33.9668,-103.4505,30.12,23,5,8.49,US,1690259561
363,le vauclin,14.5452,-60.8388,27.03,89,75,5.14,MQ,1690258970
364,velizh,55.6056,31.1967,15.74,92,84,2.09,RU,1690259561
365,verdal,63.7933,11.4817,11.02,78,99,1.38,NO,1690259561
366,zhumysker,49.3333,49.4,26.32,42,100,2.59,KZ,1690259562
367,bor,56.3567,44.0669,16.96,88,72,3.81,RU,1690259562
368,sirte,31.2089,16.5887,27.74,65,0,0.91,LY,1690259047
369,middelburg,-25.7751,29.4648,8.31,83,59,1.79,ZA,1690259562
370,fonte boa,-2.4959,-66.2662,22.95,79,17,0.89,BR,1690259563
371,klaksvik,62.2266,-6.589,7.51,83,100,5.56,FO,1690258999
372,mont-dore,-22.2833,166.5833,21.11,99,98,4.86,NC,1690259019
373,rmi capitol,7.0893,171.3805,29.97,74,100,2.06,MH,1690259564
374,betioky,-23.7167,44.3833,15.77,80,1,0.75,MG,1690259564
375,portel,-1.9356,-50.8211,23.38,66,5,1.15,BR,1690259564
376,kalispell,48.1958,-114.3129,24.16,38,0,2.06,US,1690259564
377,whangarei,-35.7317,174.3239,11.85,79,49,4.48,NZ,1690259494
378,dombarovskiy,50.7587,59.5386,26.02,36,100,3.42,RU,1690259565
379,dawei,14.0833,98.2,24.36,97,100,1.47,MM,1690259565
380,moose jaw,50.4001,-105.5344,25.23,37,45,3.66,CA,1690259565
381,domna,51.8971,113.1573,22.09,64,40,1.0,RU,1690259565
382,port augusta,-32.5,137.7667,18.07,44,0,1.19,AU,1690259050
383,amasya,40.6667,35.8333,16.82,73,7,1.04,TR,1690259566
384,nouadhibou,20.931,-17.0347,22.99,73,29,7.2,MR,1690259496
385,pangody,65.85,74.4859,24.23,55,95,3.88,RU,1690259047
386,portland,45.5234,-122.6762,22.99,65,75,6.69,US,1690259265
387,lethem,3.3803,-59.7968,24.32,88,100,1.29,GY,1690259566
388,cassino,41.4876,13.8315,27.51,62,6,2.24,IT,1690259567
389,gaspe,48.8334,-64.4819,17.95,100,0,0.0,CA,1690259567
390,salahonda,2.1019,-78.7217,27.11,83,100,6.13,CO,1690259567
391,el abiodh sidi cheikh,32.893,0.5484,26.24,17,4,0.74,DZ,1690259567
392,alpena,45.0617,-83.4327,17.84,97,0,0.0,US,1690259567
393,shingu,33.7333,135.9833,30.35,66,17,3.78,JP,1690259459
394,sur,22.5667,59.5289,26.57,86,100,1.91,OM,1690259025
395,gonzales,30.2385,-90.9201,27.81,83,0,0.0,US,1690259426
396,kruisfontein,-34.0033,24.7314,6.11,70,0,2.33,ZA,1690259016
397,longmen,24.9597,118.0889,33.34,50,21,3.65,CN,1690259568
398,marsabit,2.3284,37.9899,16.53,73,60,7.58,KE,1690259569
399,bechar,31.6167,-2.2167,34.18,17,40,2.57,DZ,1690259569
400,serafimovich,49.5786,42.736,21.46,58,27,1.56,RU,1690259569
401,berdigestyakh,62.0989,126.6992,29.86,40,61,2.75,RU,1690259569
402,kill devil hills,36.0307,-75.676,26.01,89,0,2.57,US,1690259569
403,bayside,40.8424,-124.0637,16.75,91,100,0.0,US,1690259570
404,benguela,-12.5763,13.4055,20.39,87,94,1.55,AO,1690259570
405,coxim,-18.5067,-54.76,20.66,40,0,1.07,BR,1690259570
406,arawa,-6.2132,155.5367,27.23,87,98,2.05,PG,1690259570
407,roswell,34.0232,-84.3616,24.75,84,0,0.0,US,1690259416
408,saipan,15.1355,145.701,30.39,100,100,6.17,MP,1690259018
409,lluta,-16.0147,-72.0142,10.61,23,0,1.58,PE,1690259571
410,higuera de zaragoza,25.95,-109.2833,31.96,69,51,5.62,MX,1690259571
411,lake munmorah,-33.1936,151.5719,19.76,63,13,0.89,AU,1690259571
412,harrai,22.6167,79.2167,29.31,67,70,1.39,IN,1690259571
413,trosa,58.8962,17.5481,16.31,90,100,2.53,SE,1690259572
414,koryazhma,61.3143,47.1691,15.49,81,71,2.45,RU,1690259572
415,camana,-16.6228,-72.7111,16.74,85,80,2.59,PE,1690259572
416,sandnessjoen,66.0217,12.6316,14.06,90,75,1.54,NO,1690259572
417,quinzano d'oglio,45.3109,10.0086,19.3,94,98,0.95,IT,1690259572
418,qusmuryn,52.4503,64.6311,26.02,35,73,3.89,KZ,1690259573
419,alajarvi,63.0,23.8167,11.73,92,92,0.98,FI,1690259573
420,osan,37.1522,127.0706,32.87,79,100,3.67,KR,1690259573
421,vorgashor,67.5833,63.95,20.12,64,86,2.02,RU,1690259573
422,niamey,13.5137,2.1098,27.16,89,0,1.54,NE,1690259573
423,carnarvon,-24.8667,113.6333,22.55,51,89,11.53,AU,1690259574
424,dakhla,23.6848,-15.958,19.38,92,5,8.72,EH,1690259497
425,zhigalovo,54.8097,105.1578,25.51,48,55,1.35,RU,1690259470
426,onega,63.9061,38.1404,12.44,95,96,2.62,RU,1690259574
427,edgewater,28.9889,-80.9023,26.08,88,63,2.58,US,1690259574
428,tionk essil,12.7856,-16.5217,25.66,88,100,2.51,SN,1690259575
429,susuman,62.7833,148.1667,21.25,49,74,4.44,RU,1690259575
430,faya-largeau,17.9257,19.1043,30.78,18,78,1.39,TD,1690259439
431,port alfred,-33.5906,26.891,10.32,67,0,2.86,ZA,1690259575
432,wenchang,30.904,118.4887,32.09,71,100,1.47,CN,1690259575
433,angaur state,6.906,134.13,28.25,80,99,5.68,PW,1690259576
434,san juan bautista,-14.0108,-75.7358,17.54,78,0,1.18,PE,1690259576
435,nakskov,54.8373,11.1284,15.62,79,9,7.66,DK,1690259576
436,meulaboh,4.1363,96.1285,29.5,65,38,2.0,ID,1690259576
437,binbrook,43.121,-79.804,22.12,86,0,3.09,CA,1690259576
438,el porvenir,13.7617,-87.3458,25.63,70,96,2.72,HN,1690259577
439,tobelo,1.7284,128.0095,29.52,68,87,4.31,ID,1690259577
440,aykhal,66.0,111.5,17.46,66,92,2.97,RU,1690259463
441,rongelap,11.1635,166.8941,28.85,75,59,6.66,MH,1690259577
442,altai,46.3722,96.2583,19.22,28,28,4.08,MN,1690259577
443,kone,-21.0595,164.8658,22.88,51,98,6.58,NC,1690259037
444,mohr,54.3528,9.7167,13.08,93,20,3.09,DE,1690259578
445,legionowo,52.4015,20.9266,21.88,78,0,5.66,PL,1690259578
446,boende,-0.2167,20.8667,23.57,84,64,1.31,CD,1690259578
447,forster,-32.1667,152.5167,19.05,64,82,3.67,AU,1690258991
448,reggane,26.7158,0.1714,33.86,9,1,1.95,DZ,1690259578
449,kapa'a,22.0752,-159.319,28.99,87,40,6.69,US,1690259291
450,sale,34.0389,-6.8166,22.38,73,40,0.0,MA,1690259579
451,greymouth,-42.4667,171.2,9.66,88,79,8.91,NZ,1690259579
452,qoryooley,1.7878,44.53,26.39,67,33,7.45,SO,1690259579
453,villa bruzual,9.3328,-69.1208,22.56,97,6,1.17,VE,1690259580
454,salalah,17.0151,54.0924,26.05,94,100,2.57,OM,1690259580
455,mohale's hoek,-30.1514,27.4769,2.52,28,91,0.78,LS,1690259580
456,pama,11.2497,0.7075,23.1,93,100,1.75,BF,1690259580
457,mwinilunga,-11.7358,24.4293,12.02,61,0,1.86,ZM,1690259580
458,tuba city,36.135,-111.2399,26.88,38,84,0.45,US,1690259581
459,lubango,-14.9172,13.4925,13.53,32,45,0.64,AO,1690259581
460,nguigmi,14.2495,13.1092,28.79,54,16,5.12,NE,1690258981
461,poronaysk,49.2167,143.1167,20.61,82,16,3.9,RU,1690259581
462,karatuzskoye,53.6072,92.8667,16.31,88,100,1.34,RU,1690259581
463,howrah,22.5892,88.3103,31.0,79,40,4.63,IN,1690259581
464,altenkunstadt,50.125,11.2503,16.03,90,98,0.58,DE,1690259582
465,khoyniki,51.8911,29.9552,19.02,89,79,2.35,BY,1690259582
466,wokha,26.1,94.2667,22.44,74,100,0.87,IN,1690259582
467,williams lake,52.1415,-122.1445,15.76,83,100,4.63,CA,1690259583
468,santa marta,11.2408,-74.199,29.03,70,20,7.2,CO,1690259315
469,puerto aysen,-45.4,-72.7,1.1,99,97,0.2,CL,1690259583
470,vila velha,-20.3297,-40.2925,19.97,91,75,1.03,BR,1690259005
471,tutoia,-2.7619,-42.2744,25.07,87,17,3.51,BR,1690259583
472,moab,38.5733,-109.5498,33.03,34,39,0.77,US,1690259412
473,abadeh,31.1608,52.6506,29.76,13,89,1.83,IR,1690259584
474,nieuw amsterdam,5.8833,-55.0833,25.08,92,71,2.17,SR,1690259584
475,puerto armuelles,8.2833,-82.8667,27.83,70,100,1.34,PA,1690259540
476,ust-tsilma,65.441,52.1498,19.79,63,56,2.39,RU,1690259585
477,at taj,24.2049,23.2857,29.43,22,3,3.41,LY,1690259455
478,svetlyy,54.675,20.1347,17.2,91,60,4.88,RU,1690259585
479,samaniego,1.3385,-77.5957,16.41,80,100,3.03,CO,1690259585
480,boueni,-12.9025,45.0761,24.99,69,89,4.43,YT,1690259585
481,kudahuvadhoo,2.6708,72.8944,28.17,78,86,3.8,MV,1690259587
482,villa rica,33.7321,-84.9191,24.66,94,0,1.8,US,1690259587
483,castelli,-25.9468,-60.6195,14.19,76,100,3.18,AR,1690259587
484,taoudenni,22.6783,-3.9836,36.34,19,70,4.03,ML,1690259587
485,glenfield park,-35.1372,147.334,16.31,56,1,0.46,AU,1690259588
486,taltal,-25.4,-70.4833,14.47,86,34,0.53,CL,1690259481
487,jeremoabo,-10.075,-38.4808,16.93,99,19,2.12,BR,1690259588
488,malango,-2.9627,119.9001,28.0,52,79,1.7,ID,1690259456
489,chu,43.5983,73.7614,36.64,12,19,1.97,KZ,1690259588
490,summerside,46.3959,-63.7876,20.94,88,40,3.6,CA,1690259589
491,ekuvukeni,-28.4675,30.1551,6.63,92,100,0.87,ZA,1690259589
492,praia da vitoria,38.7333,-27.0667,21.53,94,75,3.98,PT,1690259459
493,guacamayas,18.0167,-102.2167,26.15,83,100,1.7,MX,1690259589
494,segovia,41.1667,-4.0,14.68,80,1,2.01,ES,1690259589
495,nanao,37.05,136.9667,36.83,57,1,3.38,JP,1690259590
496,mende,44.6667,3.5,7.69,96,96,3.04,FR,1690259590
497,dumas,35.8656,-101.9732,29.19,32,0,4.63,US,1690259590
498,conception bay south,47.4999,-52.9981,20.58,90,61,3.57,CA,1690259439
499,tralee,52.2704,-9.7026,10.14,91,18,1.04,IE,1690258995
500,maceio,-9.6658,-35.7353,20.69,100,20,1.54,BR,1690259487
501,najran,17.4924,44.1277,33.36,15,71,6.76,SA,1690259557
502,mareeba,-17.0,145.4333,23.02,49,82,3.11,AU,1690259008
503,gandiaye,14.2333,-16.2667,26.06,75,100,2.4,SN,1690259591
504,peniche,39.3558,-9.3811,17.94,84,1,8.4,PT,1690259592
505,puerto santa,-8.9906,-78.6456,20.96,82,82,4.13,PE,1690259592
506,mawlaik,23.6333,94.4167,34.04,56,87,1.77,MM,1690259592
507,labuan bajo,-8.4964,119.8877,27.47,63,62,2.05,ID,1690259592
508,oban,56.4127,-5.4706,9.65,89,83,0.48,GB,1690259593
509,eldoret,0.5204,35.2699,13.05,94,75,1.54,KE,1690259360
510,morrope,-6.5417,-80.0111,22.06,83,91,4.84,PE,1690259593
511,rossosh',51.1209,38.5116,20.12,64,59,4.54,RU,1690259593
512,mundemba,4.9479,8.8724,22.12,97,82,0.7,CM,1690259593
513,san jose del guaviare,2.5729,-72.6459,21.57,97,83,0.79,CO,1690259594
514,chinde,26.8418,88.0763,22.43,76,97,1.14,NP,1690259439
515,aldama,22.9167,-98.0667,25.83,82,100,1.16,MX,1690259594
516,sabang,5.8933,95.3214,28.54,74,100,9.93,ID,1690259491
517,copala,16.65,-98.9833,26.67,80,100,1.83,MX,1690259595
518,erechim,-27.6342,-52.2739,13.4,90,36,1.59,BR,1690259595
519,paita,-5.0892,-81.1144,21.47,83,54,4.99,PE,1690259595
520,nyala,12.05,24.8833,26.68,58,100,5.36,SD,1690259595
521,yuzhno-kurilsk,44.0306,145.8556,22.64,83,45,0.62,RU,1690259496
522,panna,24.7167,80.2,33.79,48,86,1.22,IN,1690259596
523,nantucket,41.2835,-70.0995,23.33,80,38,4.9,US,1690259596
524,newark on trent,53.0667,-0.8167,12.34,92,89,0.89,GB,1690259579
525,guatrache,-37.6678,-63.5302,5.23,81,11,7.04,AR,1690259596
526,al mindak,20.1588,41.2834,23.78,16,80,1.85,SA,1690259597
527,qarauyl,48.9451,79.255,27.38,34,66,4.26,KZ,1690259597
528,santa ana,33.7456,-117.8678,29.48,79,0,3.6,US,1690258956
529,balykshi,47.0667,51.8667,24.0,88,75,3.0,KZ,1690259597
530,chibougamau,49.9168,-74.3659,15.79,94,100,1.18,CA,1690259512
531,cedartown,34.0537,-85.255,21.85,91,0,0.98,US,1690259598
532,san luis de la loma,17.2706,-100.8939,26.73,83,96,1.96,MX,1690259485
533,boi,9.5683,9.4953,20.31,92,29,1.81,NG,1690259598
534,anloga,5.7947,0.8973,24.8,91,100,4.9,GH,1690259030
535,tucurui,-3.7661,-49.6725,22.71,54,1,0.33,BR,1690259599
536,lazaro cardenas,17.9583,-102.2,26.83,80,100,1.6,MX,1690259512
537,vallegrande,-18.4897,-64.1069,12.54,84,87,1.9,BO,1690259599
538,takhatgarh,25.3333,73.0,31.0,66,100,4.9,IN,1690259599
539,necochea,-38.5473,-58.7368,3.34,85,9,4.08,AR,1690259034
540,arkhara,49.4212,130.0842,22.07,89,99,2.41,RU,1690259600
541,lincoln,40.8,-96.667,26.95,83,0,4.63,US,1690259409
542,sretensk,52.2453,117.7093,30.09,30,96,1.17,RU,1690259600
543,hede,33.7681,120.2517,31.77,66,99,2.62,CN,1690259600
544,murrells inlet,33.551,-79.0414,27.04,89,0,2.06,US,1690259474
545,eirunepe,-6.6603,-69.8736,23.71,66,59,0.14,BR,1690259601
546,saint-francois,46.4154,3.9054,15.69,82,100,2.06,FR,1690259040
547,darhan,49.4867,105.9228,24.79,52,21,1.39,MN,1690259601
548,bamboo flat,11.7,92.7167,30.05,74,40,4.12,IN,1690259457
549,somerset,40.5668,-74.5496,25.48,80,0,0.0,US,1690259540
550,dawson creek,55.7666,-120.2362,16.8,77,75,1.54,CA,1690259532
551,magadan,59.5667,150.8,24.74,60,19,2.4,RU,1690259032
552,denov,38.2667,67.9,37.87,11,2,1.44,UZ,1690259602
553,arraial do cabo,-22.9661,-42.0278,20.71,91,4,9.1,BR,1690259458
554,newman,37.3138,-121.0208,28.13,28,50,2.2,US,1690259602
555,siem reap,13.5,104.0,28.86,86,91,2.02,KH,1690259603
556,caleta de carquin,-11.0925,-77.6267,19.69,82,22,3.91,PE,1690259603
557,warwick,41.7001,-71.4162,22.89,89,20,2.68,US,1690259603
558,lubang,13.8584,120.124,28.61,82,100,12.01,PH,1690259437
559,nogliki,51.8333,143.1667,16.1,83,66,4.87,RU,1690259513
560,fort bragg,35.139,-79.006,25.91,88,0,0.0,US,1690259604
561,mil'kovo,55.6078,37.7956,15.73,91,54,1.07,RU,1690259604
562,caister-on-sea,52.6481,1.7265,10.21,72,97,2.89,GB,1690259604
563,alice springs,-23.7,133.8833,18.75,32,0,7.72,AU,1690259443
564,franceville,-1.6333,13.5836,20.08,88,15,0.96,GA,1690259605
565,sumbawa besar,-8.5,117.4333,32.62,40,26,4.48,ID,1690259487
566,basti,26.8,82.7167,29.22,77,97,7.36,IN,1690259605
567,kincardine,56.0667,-3.7167,11.66,93,63,2.21,GB,1690259605
568,djibo,14.1022,-1.6306,26.77,68,50,4.98,BF,1690259606
569,moyynkum,44.2914,72.9469,36.44,11,0,3.57,KZ,1690259606
570,nizhneudinsk,54.9076,99.0276,22.35,60,42,1.28,RU,1690259536
571,sanibel,26.449,-82.0223,30.0,80,59,1.34,US,1690259555
572,la ronge,55.1001,-105.2842,21.14,52,0,0.51,CA,1690259606
573,mombetsu,44.3525,143.3525,29.01,79,75,3.6,JP,1690259607
574,tamiahua,21.2667,-97.45,24.91,79,100,2.32,MX,1690259607
575,mahina,-17.5065,-149.489,26.87,83,75,4.63,PF,1690259497
576,borovichi,58.3878,33.9155,15.43,68,12,2.11,RU,1690259607
577,inverell,-29.7833,151.1167,20.06,47,3,2.24,AU,1690259608
578,calafat,43.9911,22.9328,23.81,45,5,1.56,RO,1690259608
579,chincha alta,-13.4099,-76.1323,15.33,84,6,0.53,PE,1690259608
580,ondangwa,-17.9167,15.95,13.0,35,85,1.03,NA,1690259609
581,fuglafjordur,62.244,-6.814,7.26,84,100,4.76,FO,1690259609
582,pasni,25.2631,63.471,28.58,86,98,7.85,PK,1690259609
583,kenai,60.5544,-151.2583,16.05,83,0,8.75,US,1690259609
584,puerto leguizamo,-0.1934,-74.7819,23.2,84,100,0.82,CO,1690259610
585,cova figueira,14.8905,-24.2934,22.84,86,99,5.55,CV,1690259610
586,yangquan,37.8575,113.5633,35.94,25,4,4.18,CN,1690259610
587,novyy urgal,51.0736,132.5642,21.71,89,99,1.11,RU,1690259610
588,kyaikto,17.3,97.0167,28.71,77,49,4.35,MM,1690259611
589,lethbridge,49.7,-112.8186,28.06,21,40,6.69,CA,1690259425
590,sungailiat,-1.85,106.1333,28.88,72,56,4.9,ID,1690259611
591,saatli,36.7871,36.8716,26.02,41,0,2.71,TR,1690259611
